[
  { "name": "Jakarta Pusat", "province": "DKI Jakarta", "lat": -6.1751, "lon": 106.8272 },
  { "name": "Jakarta Utara", "province": "DKI Jakarta", "lat": -6.1389, "lon": 106.864 },
  { "name": "Jakarta Barat", "province": "DKI Jakarta", "lat": -6.167, "lon": 106.7387 },
  { "name": "Jakarta Selatan", "province": "DKI Jakarta", "lat": -6.2615, "lon": 106.8106 },
  { "name": "Jakarta Timur", "province": "DKI Jakarta", "lat": -6.247, "lon": 106.8924 },
  { "name": "Kepulauan Seribu", "province": "DKI Jakarta", "lat": -5.592, "lon": 106.579 },
  { "name": "Serang", "province": "Banten", "lat": -6.1185, "lon": 106.1543 },
  { "name": "Tangerang", "province": "Banten", "lat": -6.1783, "lon": 106.6319 },
  { "name": "Cilegon", "province": "Banten", "lat": -6.017, "lon": 106.0534 },
  { "name": "Tangerang Selatan", "province": "Banten", "lat": -6.289, "lon": 106.71 },
  { "name": "Kab. Lebak", "province": "Banten", "lat": -6.56, "lon": 106.25 },
  { "name": "Kab. Pandeglang", "province": "Banten", "lat": -6.31, "lon": 106.1 },
  { "name": "Bandung", "province": "Jawa Barat", "lat": -6.9175, "lon": 107.6191 },
  { "name": "Bogor", "province": "Jawa Barat", "lat": -6.595, "lon": 106.803 },
  { "name": "Depok", "province": "Jawa Barat", "lat": -6.4025, "lon": 106.7942 },
  { "name": "Bekasi", "province": "Jawa Barat", "lat": -6.2383, "lon": 106.9756 },
  { "name": "Cirebon", "province": "Jawa Barat", "lat": -6.7081, "lon": 108.557 },
  { "name": "Sukabumi", "province": "Jawa Barat", "lat": -6.9222, "lon": 106.9272 },
  { "name": "Tasikmalaya", "province": "Jawa Barat", "lat": -7.3282, "lon": 108.2203 },
  { "name": "Cimahi", "province": "Jawa Barat", "lat": -6.892, "lon": 107.544 },
  { "name": "Kab. Karawang", "province": "Jawa Barat", "lat": -6.301, "lon": 107.308 },
  { "name": "Kab. Cianjur", "province": "Jawa Barat", "lat": -6.82, "lon": 107.14 },
  { "name": "Kab. Garut", "province": "Jawa Barat", "lat": -7.2, "lon": 107.9 },
  { "name": "Semarang", "province": "Jawa Tengah", "lat": -6.9667, "lon": 110.4167 },
  { "name": "Surakarta", "province": "Jawa Tengah", "lat": -7.5561, "lon": 110.8316 },
  { "name": "Magelang", "province": "Jawa Tengah", "lat": -7.4706, "lon": 110.2178 },
  { "name": "Tegal", "province": "Jawa Tengah", "lat": -6.87, "lon": 109.14 },
  { "name": "Pekalongan", "province": "Jawa Tengah", "lat": -6.8894, "lon": 109.673 },
  { "name": "Salatiga", "province": "Jawa Tengah", "lat": -7.331, "lon": 110.505 },
  { "name": "Kab. Banyumas", "province": "Jawa Tengah", "lat": -7.42, "lon": 109.23 },
  { "name": "Kab. Cilacap", "province": "Jawa Tengah", "lat": -7.73, "lon": 109.02 },
  { "name": "Kab. Kudus", "province": "Jawa Tengah", "lat": -6.805, "lon": 110.84 },
  { "name": "Yogyakarta", "province": "DI Yogyakarta", "lat": -7.7956, "lon": 110.3695 },
  { "name": "Kab. Sleman", "province": "DI Yogyakarta", "lat": -7.7, "lon": 110.37 },
  { "name": "Kab. Bantul", "province": "DI Yogyakarta", "lat": -7.89, "lon": 110.33 },
  { "name": "Kab. Gunung Kidul", "province": "DI Yogyakarta", "lat": -7.97, "lon": 110.6 },
  { "name": "Kab. Kulon Progo", "province": "DI Yogyakarta", "lat": -7.86, "lon": 110.16 },
  { "name": "Surabaya", "province": "Jawa Timur", "lat": -7.2575, "lon": 112.7521 },
  { "name": "Malang", "province": "Jawa Timur", "lat": -7.9839, "lon": 112.6212 },
  { "name": "Kediri", "province": "Jawa Timur", "lat": -7.82, "lon": 112.014 },
  { "name": "Jember", "province": "Jawa Timur", "lat": -8.1689, "lon": 113.7 },
  { "name": "Madiun", "province": "Jawa Timur", "lat": -7.6281, "lon": 111.5239 },
  { "name": "Banyuwangi", "province": "Jawa Timur", "lat": -8.2167, "lon": 114.3667 },
  { "name": "Probolinggo", "province": "Jawa Timur", "lat": -7.746, "lon": 113.21 },
  { "name": "Pasuruan", "province": "Jawa Timur", "lat": -7.643, "lon": 112.908 },
  { "name": "Kab. Sidoarjo", "province": "Jawa Timur", "lat": -7.45, "lon": 112.72 },
  { "name": "Kab. Gresik", "province": "Jawa Timur", "lat": -7.16, "lon": 112.65 }
]